{
"type": "FeatureCollection",
                                                                                
"features": [
{ "type": "Feature", "properties": { "NOMBRE": "1NSTITUTO CIENCIAS FORENSES", "DIR": null, "PR": null, "ZIP": null, "TEL": null, "BARRIO": "PUERTO NUEVO", "MUNICIPIO": "SAN JUAN" }, "geometry": { "type": "Point", "coordinates": [ -7355223.6311790459, 2083463.6074287039 ] } },
{ "type": "Feature", "properties": { "NOMBRE": null, "DIR": null, "PR": null, "ZIP": null, "TEL": null, "BARRIO": "PUERTO NUEVO", "MUNICIPIO": "SAN JUAN" }, "geometry": { "type": "Point", "coordinates": [ -7355223.6311790459, 2083463.6074287039 ] } },
{ "type": "Feature", "properties": { "NOMBRE": "CENTRO CARDIOVASCULAR DE P.R.", "DIR": null, "PR": null, "ZIP": null, "TEL": null, "BARRIO": "PUERTO NUEVO", "MUNICIPIO": "SAN JUAN" }, "geometry": { "type": "Point", "coordinates": [ -7355206.264251356, 2084263.8035530956 ] } },
{ "type": "Feature", "properties": { "NOMBRE": "HOGAR CARMELITANO", "DIR": "C\/JULIAN BENGOCHEA FINAL-SAN MARTIN", "PR": "PR", "ZIP": "00925", "TEL": "809-769-3110", "BARRIO": "SABANA LLANA SUR", "MUNICIPIO": "SAN JUAN" }, "geometry": { "type": "Point", "coordinates": [ -7347565.7970400965, 2083265.342120437 ] } },
{ "type": "Feature", "properties": { "NOMBRE": "SIERVAS DE MARIA PTA TIER", "DIR": "FORTALEZA # 1 VIEJO SAN JUAN", "PR": "PR", "ZIP": "00901", "TEL": "809-724-2228", "BARRIO": "SAN JUAN ANTIGUO", "MUNICIPIO": "SAN JUAN" }, "geometry": { "type": "Point", "coordinates": [ -7360306.9170428002, 2091917.4016120215 ] } },
{ "type": "Feature", "properties": { "NOMBRE": "BIO MED APPLIC OF SAN JUAN", "DIR": "C\/ DUARTE # 205  3ER PISO", "PR": "PR", "ZIP": "00917", "TEL": "809-764-5640", "BARRIO": "HATO REY", "MUNICIPIO": "SAN JUAN" }, "geometry": { "type": "Point", "coordinates": [ -7352716.3806570806, 2087060.5276051455 ] } },
{ "type": "Feature", "properties": { "NOMBRE": "S.E.R. SOC NINOS Y ADULTOS L", "DIR": "C\/PONCE # 68 URB PEREZ MORRIS BX 32", "PR": "PR", "ZIP": "00936-0325", "TEL": "809-767-6710", "BARRIO": "UNIVERSIDAD", "MUNICIPIO": "SAN JUAN" }, "geometry": { "type": "Point", "coordinates": [ -7352555.3654153822, 2085729.8230018811 ] } },
{ "type": "Feature", "properties": { "NOMBRE": "CENTRO MEDICO", "DIR": "BO MONACILLOS BOX 1681", "PR": "PR", "ZIP": "00925-1681", "TEL": "809-765-1667", "BARRIO": "PUERTO NUEVO", "MUNICIPIO": "SAN JUAN" }, "geometry": { "type": "Point", "coordinates": [ -7355237.5023283008, 2084005.2125800804 ] } },
{ "type": "Feature", "properties": { "NOMBRE": "LAS ANTILLAS", "DIR": "AVE 65 DE INFANTERIA BOX 29395", "PR": "PR", "ZIP": "00929-9395", "TEL": null, "BARRIO": "SABANA LLANA SUR", "MUNICIPIO": "SAN JUAN" }, "geometry": { "type": "Point", "coordinates": [ -7348684.5768805156, 2083831.4447730142 ] } },
{ "type": "Feature", "properties": { "NOMBRE": "HOSPITAL SAN GERARDO", "DIR": "CARR # 844  KM 0.2 CUPEY BAJO", "PR": "PR", "ZIP": "00928", "TEL": "809-761-8383", "BARRIO": "CUPEY", "MUNICIPIO": "SAN JUAN" }, "geometry": { "type": "Point", "coordinates": [ -7352248.4675524663, 2081195.6628575006 ] } },
{ "type": "Feature", "properties": { "NOMBRE": "HOSPITAL DEL NINO", "DIR": "CARR 19 KM 0.6  BO MONACILLOS", "PR": "PR", "ZIP": "00970", "TEL": "809-783-2226", "BARRIO": "PUERTO NUEVO", "MUNICIPIO": "SAN JUAN" }, "geometry": { "type": "Point", "coordinates": [ -7358954.9070107127, 2083920.4135161021 ] } },
{ "type": "Feature", "properties": { "NOMBRE": "CENTRO LAT ENF TRANS SEXUA", "DIR": "BO MONACILLOS - CENTRO MEDICO BX ST", "PR": "PR", "ZIP": "00922", "TEL": "809-754-8118", "BARRIO": "PUERTO NUEVO", "MUNICIPIO": "SAN JUAN" }, "geometry": { "type": "Point", "coordinates": [ -7355141.0377499629, 2083972.6510135375 ] } },
{ "type": "Feature", "properties": { "NOMBRE": "HOSP PENITENCIERIA ESTATAL", "DIR": "INT CARR # 18 Y CARR # 21 BOX 71308", "PR": "PR", "ZIP": "00936-1308", "TEL": "809-763-2055", "BARRIO": "MONACILLO URBANO", "MUNICIPIO": "SAN JUAN" }, "geometry": { "type": "Point", "coordinates": [ -7354840.1539699314, 2083232.1515036565 ] } },
{ "type": "Feature", "properties": { "NOMBRE": "HOSP DE PSIQUIATRIA FORENS", "DIR": "BO MONACILLOS URBANO CENTRO MEDICO", "PR": "PR", "ZIP": "00936-0061", "TEL": "809-766-4646", "BARRIO": "MONACILLO URBANO", "MUNICIPIO": "SAN JUAN" }, "geometry": { "type": "Point", "coordinates": [ -7355533.6596279824, 2083426.9111860951 ] } },
{ "type": "Feature", "properties": { "NOMBRE": "HOSPITAL DE PSIQUIATRIA", "DIR": "BO MONACILLOS  CALL BOX 2100", "PR": "PR", "ZIP": "00936-2100", "TEL": "809-766-4646", "BARRIO": "PUERTO NUEVO", "MUNICIPIO": "SAN JUAN" }, "geometry": { "type": "Point", "coordinates": [ -7355654.3355700988, 2083494.3449688333 ] } },
{ "type": "Feature", "properties": { "NOMBRE": "HOSP UNIVERSITARIO ADULTOS", "DIR": "BO MONACILLOS-CENTRO MEDICO BOX UDH", "PR": "PR", "ZIP": "00922", "TEL": "809-754-3636", "BARRIO": "PUERTO NUEVO", "MUNICIPIO": "SAN JUAN" }, "geometry": { "type": "Point", "coordinates": [ -7355429.2031268431, 2084059.9555908574 ] } },
{ "type": "Feature", "properties": { "NOMBRE": "DIV CLI EXT ADM DE SER-ASE", "DIR": "CAPARRA HEIGHTS STATIO BO MONACILLO", "PR": "PR", "ZIP": "00922", "TEL": "809-754-3540", "BARRIO": "PUERTO NUEVO", "MUNICIPIO": "SAN JUAN" }, "geometry": { "type": "Point", "coordinates": [ -7355402.4764907407, 2084394.8494979371 ] } },
{ "type": "Feature", "properties": { "NOMBRE": "SECRETARIADO DE EMER\\MEDIC", "DIR": "PUERTO RICO MEDICAL CENTER", "PR": "PR", "ZIP": "00925-28", "TEL": null, "BARRIO": "PUERTO NUEVO", "MUNICIPIO": "SAN JUAN" }, "geometry": { "type": "Point", "coordinates": [ -7355700.6689555384, 2083871.1191300158 ] } },
{ "type": "Feature", "properties": { "NOMBRE": "HOSPITAL UNIV CENTRO MEDIC", "DIR": "CARR #21 KM 1.6 BO.MONACILLOS", "PR": "PR", "ZIP": "00925", "TEL": "809-754-3636", "BARRIO": "PUERTO NUEVO", "MUNICIPIO": "SAN JUAN" }, "geometry": { "type": "Point", "coordinates": [ -7355453.6141634071, 2084289.1532589525 ] } },
{ "type": "Feature", "properties": { "NOMBRE": "HOSP PEDRIATICO UNIVERSITA", "DIR": "CENTRO MEDICO  BOX 365067", "PR": "PR", "ZIP": "00936-5067", "TEL": "809-767-3182", "BARRIO": "PUERTO NUEVO", "MUNICIPIO": "SAN JUAN" }, "geometry": { "type": "Point", "coordinates": [ -7355281.3994324226, 2083923.6245243174 ] } },
{ "type": "Feature", "properties": { "NOMBRE": "HOSPITAL ONCOLOGICO", "DIR": "BO MONACILLOS-CENTRO MEDICO BOX 181", "PR": "PR", "ZIP": "00919-1811", "TEL": "809-763-4149", "BARRIO": "PUERTO NUEVO", "MUNICIPIO": "SAN JUAN" }, "geometry": { "type": "Point", "coordinates": [ -7355227.3354323274, 2084364.239671062 ] } },
{ "type": "Feature", "properties": { "NOMBRE": "HOSP INDUSTRIAL-CENTR MEDI", "DIR": "BO MONACILLOS  BOX 365028", "PR": "PR", "ZIP": "00936-5028", "TEL": "809-754-2528", "BARRIO": "PUERTO NUEVO", "MUNICIPIO": "SAN JUAN" }, "geometry": { "type": "Point", "coordinates": [ -7355227.5645924034, 2084163.017241746 ] } },
{ "type": "Feature", "properties": { "NOMBRE": "DEPTO DE SERV MEDICOS U.P.R.", "DIR": "APARTADO \"H\" U.P.R. STATION 307", "PR": "PR", "ZIP": "00931-0307", "TEL": "809-764-0622", "BARRIO": "HATO REY", "MUNICIPIO": "SAN JUAN" }, "geometry": { "type": "Point", "coordinates": [ -7352975.3431954924, 2085927.0631243151 ] } },
{ "type": "Feature", "properties": { "NOMBRE": "HOSP MUNIC  DR. RAFAEL LOP", "DIR": "BO MONACILLOS CENT. MEDICO BOX 2140", "PR": "PR", "ZIP": "00925-1405", "TEL": "809-766-2222", "BARRIO": "MONACILLO URBANO", "MUNICIPIO": "SAN JUAN" }, "geometry": { "type": "Point", "coordinates": [ -7356537.3669378143, 2083117.4970152813 ] } },
{ "type": "Feature", "properties": { "NOMBRE": "HOSPITAL SAN JORGE INC", "DIR": "AVE. SAN JORGE # 258", "PR": "PR", "ZIP": "00907-0258", "TEL": "809-727-8310", "BARRIO": "SANTURCE", "MUNICIPIO": "SAN JUAN" }, "geometry": { "type": "Point", "coordinates": [ -7354110.7793523856, 2089935.7998737614 ] } },
{ "type": "Feature", "properties": { "NOMBRE": "C.D.T. DR. ARNALDO J. GARC", "DIR": "LUIS LLORENS TORRE BX 21405", "PR": "PR", "ZIP": "00908-1405", "TEL": "809-726-0960", "BARRIO": "SANTURCE", "MUNICIPIO": "SAN JUAN" }, "geometry": { "type": "Point", "coordinates": [ -7351627.5229358003, 2090107.7454799665 ] } },
{ "type": "Feature", "properties": { "NOMBRE": "BASIC CLINIC", "DIR": "AVE MUNOZ RIVERA # 402 PDA 31", "PR": "PR", "ZIP": "00917", "TEL": "809-758-6677", "BARRIO": "HATO REY NORTE", "MUNICIPIO": "SAN JUAN" }, "geometry": { "type": "Point", "coordinates": [ -7353493.414760259, 2087183.6924022238 ] } },
{ "type": "Feature", "properties": { "NOMBRE": "ASOC. HOSPITAL DEL MAESTRO PR", "DIR": "52 AVE DOMENECH FINAL BOX 36474", "PR": "PR", "ZIP": "00939-4748", "TEL": "809-758-8383", "BARRIO": "HATO REY NORTE", "MUNICIPIO": "SAN JUAN" }, "geometry": { "type": "Point", "coordinates": [ -7354735.7223771019, 2085832.6937800488 ] } },
{ "type": "Feature", "properties": { "NOMBRE": "HOSPITAL AUXILIO MUTUO", "DIR": "AVE. PONCE DE LEON PDA. 36 BOX 1227", "PR": "PR", "ZIP": "00917-1227", "TEL": "809-758-2000", "BARRIO": "UNIVERSIDAD", "MUNICIPIO": "SAN JUAN" }, "geometry": { "type": "Point", "coordinates": [ -7352923.6069073854, 2085447.4816825546 ] } },
{ "type": "Feature", "properties": { "NOMBRE": "HOSPITAL PAVIA HATO REY", "DIR": "AVE. PONCE DE LEON 435", "PR": "PR", "ZIP": "00917-19", "TEL": "809-754-0909", "BARRIO": "HATO REY", "MUNICIPIO": "SAN JUAN" }, "geometry": { "type": "Point", "coordinates": [ -7353322.3092703093, 2086702.0521584961 ] } },
{ "type": "Feature", "properties": { "NOMBRE": "HOSPITAL METROPOLITANO", "DIR": "CARR # 21 LAS LOMAS #1785-BOX 1198", "PR": "PR", "ZIP": "00925-1981", "TEL": "809-793-6200", "BARRIO": "PUERTO NUEVO", "MUNICIPIO": "SAN JUAN" }, "geometry": { "type": "Point", "coordinates": [ -7358029.5406561205, 2083256.5939315213 ] } },
{ "type": "Feature", "properties": { "NOMBRE": "HOSPITAL SAN FRANCISCO IN", "DIR": "AVE. DE DIEGO #371 P.O. BOX 29025", "PR": "PR", "ZIP": "00925-9025", "TEL": "809-767-5100", "BARRIO": "ORIENTE", "MUNICIPIO": "SAN JUAN" }, "geometry": { "type": "Point", "coordinates": [ -7351419.6853742981, 2084301.852091155 ] } },
{ "type": "Feature", "properties": { "NOMBRE": "HOSP DRS. HNOS. RAMOS YORD", "DIR": "AVE. DE DIEGO ESQ. CALLE 40S.O.", "PR": "PR", "ZIP": "00925-28", "TEL": "809-792-6110", "BARRIO": "UNIVERSIDAD", "MUNICIPIO": "SAN JUAN" }, "geometry": { "type": "Point", "coordinates": [ -7352612.4618764725, 2085061.5185307513 ] } },
{ "type": "Feature", "properties": { "NOMBRE": "HOSP ASHFORD PRESBYTERIAN", "DIR": "AVE. ASHFORD 1451 CONDADO BOX 32", "PR": "PR", "ZIP": "00936-0032", "TEL": "809-721-2160", "BARRIO": "SANTURCE", "MUNICIPIO": "SAN JUAN" }, "geometry": { "type": "Point", "coordinates": [ -7354527.6137200836, 2091099.0841735702 ] } },
{ "type": "Feature", "properties": { "NOMBRE": "HOSPITAL PAVIA", "DIR": "CALLE ASIA 1462 BOX 11137", "PR": "PR", "ZIP": "00907-1137", "TEL": "809-727-6060", "BARRIO": "SANTURCE", "MUNICIPIO": "SAN JUAN" }, "geometry": { "type": "Point", "coordinates": [ -7354840.2278744867, 2089674.9665702593 ] } },
{ "type": "Feature", "properties": { "NOMBRE": "CPC HOSP SAN JUAN CAPESTRA", "DIR": "CARR # 877 KM 1.6  R 2 BZ 11", "PR": "PR", "ZIP": "00928", "TEL": "809-760-0222", "BARRIO": "SABANA LLANA SUR", "MUNICIPIO": "SAN JUAN" }, "geometry": { "type": "Point", "coordinates": [ -7350100.9755620835, 2082827.7401106411 ] } },
{ "type": "Feature", "properties": { "NOMBRE": "HOSPITAL DE VETERANOS", "DIR": "ONE VETERANS PLAZA BO MONACILLOS", "PR": "PR", "ZIP": "00927-5800", "TEL": "809-758-7575", "BARRIO": "PUERTO NUEVO", "MUNICIPIO": "SAN JUAN" }, "geometry": { "type": "Point", "coordinates": [ -7355906.4034175007, 2083668.9181856953 ] } },
{ "type": "Feature", "properties": { "NOMBRE": "SAN JUAN HEALTH CENTRE", "DIR": "AVE DE DIEGO #200", "PR": "PR", "ZIP": null, "TEL": "809-725-0202", "BARRIO": "SANTURCE", "MUNICIPIO": "SAN JUAN" }, "geometry": { "type": "Point", "coordinates": [ -7354429.464325483, 2090336.857211486 ] } },
{ "type": "Feature", "properties": { "NOMBRE": "DOCTORS HOSPITAL INC.", "DIR": "SAN RAFAEL 1395 BOX 11338", "PR": "PR", "ZIP": "00907-1338", "TEL": "809-723-2950", "BARRIO": "SANTURCE", "MUNICIPIO": "SAN JUAN" }, "geometry": { "type": "Point", "coordinates": [ -7355305.5101379175, 2089731.24563474 ] } },
{ "type": "Feature", "properties": { "NOMBRE": "HOSPITAL SAN CARLOS INC", "DIR": "AVE PONCE DE LEON # 1822 PDA. 26", "PR": "PR", "ZIP": "00907-8410", "TEL": "809-727-5858", "BARRIO": "SANTURCE", "MUNICIPIO": "SAN JUAN" }, "geometry": { "type": "Point", "coordinates": [ -7353867.5670197206, 2089046.1177825502 ] } },
{ "type": "Feature", "properties": { "NOMBRE": "UNIDAD SALUD PUBLICA", "DIR": "C\/VALLEJO ESQ GARCIA MORENO", "PR": "PR", "ZIP": "00925", "TEL": "809-767-2648", "BARRIO": "PUEBLO", "MUNICIPIO": "SAN JUAN" }, "geometry": { "type": "Point", "coordinates": [ -7352146.1410874119, 2084084.5604920054 ] } },
{ "type": "Feature", "properties": { "NOMBRE": "HOSPITAL SAN JORGE CHILDRENS", "DIR": "Calle San Jorge", "PR": null, "ZIP": null, "TEL": null, "BARRIO": "SANTURCE", "MUNICIPIO": "SAN JUAN" }, "geometry": { "type": "Point", "coordinates": [ -7354058.6326014744, 2089891.0241543504 ] } },
{ "type": "Feature", "properties": { "NOMBRE": "SAN JUAN WELLNESS CENTER", "DIR": "CARR #199 FRENTE AL RES. ALTURAS DE CUPEY", "PR": null, "ZIP": null, "TEL": null, "BARRIO": "CUPEY", "MUNICIPIO": "SAN JUAN" }, "geometry": { "type": "Point", "coordinates": [ -7352199.4711549217, 2079354.9160273422 ] } },
{ "type": "Feature", "properties": { "NOMBRE": "HOSPITAL WILMA VAZQUEZ", "DIR": "Carr. 2", "PR": null, "ZIP": null, "TEL": null, "BARRIO": "ALGARROBO", "MUNICIPIO": "VEGA BAJA" }, "geometry": { "type": "Point", "coordinates": [ -7391501.931006643, 2089754.2397785266 ] } },
{ "type": "Feature", "properties": { "NOMBRE": "INSTITUTO MEDICO DEL NORTE", "DIR": "CARR #2 KM 39.5 BO.ALGARROBO", "PR": "PR", "ZIP": "00694-7001", "TEL": "809-858-1580", "BARRIO": "CABO CARIBE", "MUNICIPIO": "VEGA BAJA" }, "geometry": { "type": "Point", "coordinates": [ -7389152.5702763591, 2089857.5173390056 ] } },
{ "type": "Feature", "properties": { "NOMBRE": "VEGA ALTA MEDICAL HOSPITAL", "DIR": "Carr.#2 Bo. Bajura", "PR": null, "ZIP": null, "TEL": "787-270-2300", "BARRIO": "SABANA", "MUNICIPIO": "VEGA ALTA" }, "geometry": { "type": "Point", "coordinates": [ -7384479.6107608583, 2086872.4426166133 ] } },
{ "type": "Feature", "properties": { "NOMBRE": "HOSPITAL EMERGENCIA DEL NORTE", "DIR": null, "PR": null, "ZIP": null, "TEL": null, "BARRIO": "HIGUILAR", "MUNICIPIO": "DORADO" }, "geometry": { "type": "Point", "coordinates": [ -7377064.042887019, 2091855.5564426528 ] } },
{ "type": "Feature", "properties": { "NOMBRE": "CENTRO REHABILITACIONAL VO", "DIR": "ANT. HOSP RUIZ SOLER EDIF A CARR #", "PR": "PR", "ZIP": "00956", "TEL": "809-782-3970", "BARRIO": "JUAN SANCHEZ", "MUNICIPIO": "BAYAMON" }, "geometry": { "type": "Point", "coordinates": [ -7361302.2227251818, 2084529.2852885537 ] } },
{ "type": "Feature", "properties": { "NOMBRE": "INSTITUTO PSICOPEDAGOGICO", "DIR": "CARR # 2  KM 8.5", "PR": "PR", "ZIP": "00956", "TEL": "809-783-5431", "BARRIO": "JUAN SANCHEZ", "MUNICIPIO": "BAYAMON" }, "geometry": { "type": "Point", "coordinates": [ -7361718.1878183493, 2084170.3151470162 ] } },
{ "type": "Feature", "properties": { "NOMBRE": "HOSP REGIONAL DR. RUIZ ARN", "DIR": "BAYAMON GARDENS BOX 4258", "PR": "PR", "ZIP": "00906-4258", "TEL": "809-787-3620", "BARRIO": "MINILLAS", "MUNICIPIO": "BAYAMON" }, "geometry": { "type": "Point", "coordinates": [ -7364319.291030745, 2080621.8864627273 ] } },
{ "type": "Feature", "properties": { "NOMBRE": "F.S.E. (FONDO DEL SEGURO)", "DIR": "CARR 2 KM 8.5 BO JUAN SANCHEZ", "PR": "PR", "ZIP": "00969-0248", "TEL": "809-782-8250", "BARRIO": "JUAN SANCHEZ", "MUNICIPIO": "BAYAMON" }, "geometry": { "type": "Point", "coordinates": [ -7361783.1028798465, 2084400.2675658013 ] } },
{ "type": "Feature", "properties": { "NOMBRE": "HOSPITAL REG. UNIVERSITARI", "DIR": "AVE. LAUREL URB. SANTA JUANITA", "PR": "PR", "ZIP": "00956", "TEL": "809-787-0810", "BARRIO": "MINILLAS", "MUNICIPIO": "BAYAMON" }, "geometry": { "type": "Point", "coordinates": [ -7364254.5274307886, 2080612.1415754298 ] } },
{ "type": "Feature", "properties": { "NOMBRE": "DOCTOR CENTER", "DIR": "CALLE 2 J-9 EXT. HERMANOS DAVILA", "PR": "PR", "ZIP": "00956-2957", "TEL": "809-786-0050", "BARRIO": "HATO TEJAS", "MUNICIPIO": "BAYAMON" }, "geometry": { "type": "Point", "coordinates": [ -7365612.0548178768, 2084228.1654366257 ] } },
{ "type": "Feature", "properties": { "NOMBRE": "HOSPITAL SAN PABLO INC.", "DIR": "C\/ SANTA CRUZ 70 URB. SANTA CRUZ", "PR": "PR", "ZIP": "00956-0236", "TEL": "787-740-4747", "BARRIO": "JUAN SANCHEZ", "MUNICIPIO": "BAYAMON" }, "geometry": { "type": "Point", "coordinates": [ -7363524.717922207, 2084157.8659258967 ] } },
{ "type": "Feature", "properties": { "NOMBRE": "HOSPITAL HERMANOS MELENDEZ", "DIR": "CARR # 2  KM 11.7  BOX 306", "PR": "PR", "ZIP": "00956-0306", "TEL": "809-798-8181", "BARRIO": "BARRIO PUEBLO", "MUNICIPIO": "BAYAMON" }, "geometry": { "type": "Point", "coordinates": [ -7365241.9893150944, 2084077.7058458128 ] } },
{ "type": "Feature", "properties": { "NOMBRE": "HOSPITAL MENONITA", "DIR": "Ave. El Jibaro", "PR": null, "ZIP": "00739", "TEL": "739-6341", "BARRIO": "BAYAMON", "MUNICIPIO": "CIDRA" }, "geometry": { "type": "Point", "coordinates": [ -7364708.6041803882, 2059301.1937478401 ] } },
{ "type": "Feature", "properties": { "NOMBRE": "HOSPITAL PANAMERICANO", "DIR": "carr. #787, Km 1.5, Bo. Bayamon", "PR": null, "ZIP": null, "TEL": "739-5555", "BARRIO": "ARENAS", "MUNICIPIO": "CIDRA" }, "geometry": { "type": "Point", "coordinates": [ -7362214.9940332463, 2058176.2452453051 ] } },
{ "type": "Feature", "properties": { "NOMBRE": "FIRST PANAMERICAN HOSPITAL", "DIR": "CARR # 787 KM 1.5  APDO 1398", "PR": "PR", "ZIP": "00739-1398", "TEL": "809-739-5555", "BARRIO": "SUD", "MUNICIPIO": "CIDRA" }, "geometry": { "type": "Point", "coordinates": [ -7364009.264582146, 2057451.4445419065 ] } },
{ "type": "Feature", "properties": { "NOMBRE": "HOSPITAL SAN JUAN BAUTISTA", "DIR": "Carr. 172 int. Carr. #52", "PR": null, "ZIP": null, "TEL": "744-3141", "BARRIO": "CANABONCITO", "MUNICIPIO": "CAGUAS" }, "geometry": { "type": "Point", "coordinates": [ -7352697.5671034753, 2063340.1272445517 ] } },
{ "type": "Feature", "properties": { "NOMBRE": "HOSPITAL HIMA", "DIR": "Ave. Luis Muñoz Marin int. Ave. Degetau", "PR": null, "ZIP": null, "TEL": "653-3434", "BARRIO": "TURABO", "MUNICIPIO": "CAGUAS" }, "geometry": { "type": "Point", "coordinates": [ -7350639.6067708461, 2063072.7737942399 ] } },
{ "type": "Feature", "properties": { "NOMBRE": "HOSPITAL CLINICA DEL TURABO", "DIR": "CALLE RAFAEL CORDERO FINAL BOX 907", "PR": "PR", "ZIP": "00726-0907", "TEL": "746-8999", "BARRIO": "BARRIO PUEBLO", "MUNICIPIO": "CAGUAS" }, "geometry": { "type": "Point", "coordinates": [ -7350981.5633914806, 2065419.8427844527 ] } },
{ "type": "Feature", "properties": { "NOMBRE": "MEDICAL GROUP", "DIR": null, "PR": null, "ZIP": null, "TEL": null, "BARRIO": "TURABO", "MUNICIPIO": "CAGUAS" }, "geometry": { "type": "Point", "coordinates": [ -7351922.1328511387, 2062983.5483715772 ] } },
{ "type": "Feature", "properties": { "NOMBRE": "HOSPITAL", "DIR": null, "PR": null, "ZIP": null, "TEL": null, "BARRIO": "BARRIO PUEBLO", "MUNICIPIO": "CAGUAS" }, "geometry": { "type": "Point", "coordinates": [ -7351130.9363716673, 2065819.2136273938 ] } },
{ "type": "Feature", "properties": { "NOMBRE": "C.D.T. CONCILIO DE SALUD", "DIR": "CARR # 187 INT 188  BOX 509", "PR": "PR", "ZIP": "00772", "TEL": "787-8762245", "BARRIO": "BARRIO PUEBLO", "MUNICIPIO": "LOIZA" }, "geometry": { "type": "Point", "coordinates": [ -7333751.7404360175, 2087563.7096137402 ] } },
{ "type": "Feature", "properties": { "NOMBRE": "HOSPITAL DE AREA", "DIR": null, "PR": null, "ZIP": null, "TEL": null, "BARRIO": "MARTIN GONZALEZ", "MUNICIPIO": "CAROLINA" }, "geometry": { "type": "Point", "coordinates": [ -7343983.8702680971, 2083073.6021050694 ] } },
{ "type": "Feature", "properties": { "NOMBRE": "CENTRO MEDICO DE TRUJILLO ALTO", "DIR": "C\/ #181 MARGINAL EXPRESO TRUJILLO ALTO", "PR": null, "ZIP": null, "TEL": null, "BARRIO": "SAINT JUST", "MUNICIPIO": "TRUJILLO ALTO" }, "geometry": { "type": "Point", "coordinates": [ -7347649.6071070414, 2080167.3036098669 ] } },
{ "type": "Feature", "properties": { "NOMBRE": "HOSP AREA DR. TITO MATTEI", "DIR": "CARR # 128 KM 1.O BOX 68", "PR": "PR", "ZIP": "00698-0068", "TEL": "809-856-2105", "BARRIO": "SUSUA BAJA", "MUNICIPIO": "YAUCO" }, "geometry": { "type": "Point", "coordinates": [ -7442536.8424784895, 2041223.2223390688 ] } },
{ "type": "Feature", "properties": { "NOMBRE": "CENTRO SAN CRISTOBAL VILLALBA", "DIR": "CALLE MUNOZ RIVERA # 1514", "PR": "PR", "ZIP": "00766-1514", "TEL": "809-847-3000", "BARRIO": "BARRIO PUEBLO", "MUNICIPIO": "VILLALBA" }, "geometry": { "type": "Point", "coordinates": [ -7401838.2156332489, 2052633.5568978945 ] } },
{ "type": "Feature", "properties": { "NOMBRE": "SOUTHERNS SURGERY CENTER", "DIR": "EDIF PARRA PONCE BY PASS", "PR": "PR", "ZIP": "00731", "TEL": "809-841-0303", "BARRIO": "CANAS URBANO", "MUNICIPIO": "PONCE" }, "geometry": { "type": "Point", "coordinates": [ -7415942.6676804954, 2037215.6674962207 ] } },
{ "type": "Feature", "properties": { "NOMBRE": "CENTRO CIRUG AMBUL OFTALMI", "DIR": "C\/CONCORDIA EDIF FULLANA 8B", "PR": "PR", "ZIP": "00731", "TEL": "809-842-0203", "BARRIO": "CANAS URBANO", "MUNICIPIO": "PONCE" }, "geometry": { "type": "Point", "coordinates": [ -7415457.3537206734, 2038125.9007157974 ] } },
{ "type": "Feature", "properties": { "NOMBRE": "SAN LUCAS I", "DIR": "Calle Guadalupe", "PR": "PR", "ZIP": "00731-0060", "TEL": "840-4545", "BARRIO": "SEGUNDO", "MUNICIPIO": "PONCE" }, "geometry": { "type": "Point", "coordinates": [ -7416115.992276676, 2039475.9049008782 ] } },
{ "type": "Feature", "properties": { "NOMBRE": "REHABILITACION VOCACIONAL", "DIR": "CARR # 14  BO MACHUELOS BOX 7871", "PR": "PR", "ZIP": "00731-7871", "TEL": "809-842-8253", "BARRIO": "MACHUELO ABAJO", "MUNICIPIO": "PONCE" }, "geometry": { "type": "Point", "coordinates": [ -7412794.9646101985, 2041534.3441063249 ] } },
{ "type": "Feature", "properties": { "NOMBRE": "INST PSICOPEDAGOGICO DEL S", "DIR": "CARR # 14 KM 4.2 BO MACHUELOS", "PR": "PR", "ZIP": "00731", "TEL": "809-843-6018", "BARRIO": "MACHUELO ABAJO", "MUNICIPIO": "PONCE" }, "geometry": { "type": "Point", "coordinates": [ -7413338.9434162378, 2041313.2614890763 ] } },
{ "type": "Feature", "properties": { "NOMBRE": "HOSPITAL DR. PILA", "DIR": "Ave. Las Americas", "PR": null, "ZIP": null, "TEL": "848-5600", "BARRIO": "CANAS URBANO", "MUNICIPIO": "PONCE" }, "geometry": { "type": "Point", "coordinates": [ -7415063.9047021084, 2037997.7805918939 ] } },
{ "type": "Feature", "properties": { "NOMBRE": "HOSP DE PSIQUIATRIA DE PONCE", "DIR": "CARR # 14 KM 4.2 BO MACHUELO", "PR": "PR", "ZIP": "00731", "TEL": "809-844-0210", "BARRIO": "MACHUELO ARRIBA", "MUNICIPIO": "PONCE" }, "geometry": { "type": "Point", "coordinates": [ -7412907.1142905476, 2041608.0379655941 ] } },
{ "type": "Feature", "properties": { "NOMBRE": "HOSPITAL DE DAMAS", "DIR": "PONCE BY PASS", "PR": "PR", "ZIP": "00731", "TEL": "809-840-8686", "BARRIO": "CANAS URBANO", "MUNICIPIO": "PONCE" }, "geometry": { "type": "Point", "coordinates": [ -7415852.7485406315, 2037207.3810647863 ] } },
{ "type": "Feature", "properties": { "NOMBRE": "HOSP-REG DR. JOSE N. GANDA", "DIR": "CARR #14 KM 4.2 BO.MACHUELO", "PR": "PR", "ZIP": "00731", "TEL": "809-844-2080", "BARRIO": "MACHUELO ABAJO", "MUNICIPIO": "PONCE" }, "geometry": { "type": "Point", "coordinates": [ -7414515.5913232518, 2040249.5182058753 ] } },
{ "type": "Feature", "properties": { "NOMBRE": "HOSPITAL SAN CRISTOBAL", "DIR": "CARR #506 COTO LAUREL BOX 501", "PR": "PR", "ZIP": "00731", "TEL": "809-848-2100", "BARRIO": "COTO LAUREL", "MUNICIPIO": "PONCE" }, "geometry": { "type": "Point", "coordinates": [ -7407977.003901205, 2042124.8763450254 ] } },
{ "type": "Feature", "properties": { "NOMBRE": "CENTRO MEDICO", "DIR": "CENTRO MEDICO CARR # 14 BO MACHUELO", "PR": "PR", "ZIP": "00731", "TEL": "809-842-0300", "BARRIO": "MACHUELO ABAJO", "MUNICIPIO": "PONCE" }, "geometry": { "type": "Point", "coordinates": [ -7413042.2471278459, 2041329.9015623324 ] } },
{ "type": "Feature", "properties": { "NOMBRE": "CORPORACION MEDICA JUANA DIAZ", "DIR": "CALLE LUIS MUÑOZ RIVERA", "PR": "PR", "ZIP": "00795", "TEL": "809-837-2265", "BARRIO": "BARRIO PUEBLO", "MUNICIPIO": "JUANA DIAZ" }, "geometry": { "type": "Point", "coordinates": [ -7403367.1503623659, 2043498.2147820846 ] } },
{ "type": "Feature", "properties": { "NOMBRE": "EDIFICIO PORRATA", "DIR": null, "PR": null, "ZIP": null, "TEL": null, "BARRIO": "CANAS URBANO", "MUNICIPIO": "PONCE" }, "geometry": { "type": "Point", "coordinates": [ -7415189.0760045191, 2038011.2405615197 ] } },
{ "type": "Feature", "properties": { "NOMBRE": "HOSPITAL DE VETERANOS", "DIR": null, "PR": null, "ZIP": null, "TEL": null, "BARRIO": "PLAYA", "MUNICIPIO": "PONCE" }, "geometry": { "type": "Point", "coordinates": [ -7414358.956888862, 2036145.9270502452 ] } },
{ "type": "Feature", "properties": { "NOMBRE": "COMERIO MEDICAL CENTER", "DIR": "carr. 778 Bda. Pasadell", "PR": null, "ZIP": null, "TEL": "875-3136", "BARRIO": "BARRIO PUEBLO", "MUNICIPIO": "COMERIO" }, "geometry": { "type": "Point", "coordinates": [ -7371906.5929023447, 2063663.113116377 ] } },
{ "type": "Feature", "properties": { "NOMBRE": "POLICLINICA MENONITA", "DIR": null, "PR": null, "ZIP": null, "TEL": "825-1020", "BARRIO": "BARRIO PUEBLO", "MUNICIPIO": "COAMO" }, "geometry": { "type": "Point", "coordinates": [ -7386784.1708143614, 2047093.1899968814 ] } },
{ "type": "Feature", "properties": { "NOMBRE": "C.D.T.", "DIR": "CALLE IGNACIO LOPEZ # 10 BOX 2004", "PR": "PR", "ZIP": "00705-2004", "TEL": "809-735-7211", "BARRIO": "BARRIO PUEBLO", "MUNICIPIO": "AIBONITO" }, "geometry": { "type": "Point", "coordinates": [ -7376617.4713139748, 2053505.7689738092 ] } },
{ "type": "Feature", "properties": { "NOMBRE": "HOSPITAL GENERAL MENONITA", "DIR": "C\/JOSE C VAZQUEZ APDO 1379-CAONILLA", "PR": "PR", "ZIP": "00705-1379", "TEL": "809-735-8001", "BARRIO": "ROBLES", "MUNICIPIO": "AIBONITO" }, "geometry": { "type": "Point", "coordinates": [ -7376187.6541064437, 2054382.878041069 ] } },
{ "type": "Feature", "properties": { "NOMBRE": "HOSPITAL DE CASTANER", "DIR": "CARR # 135 KM 64.2 BOX 1003", "PR": "PR", "ZIP": "00669-1003", "TEL": "809-829-5010", "BARRIO": "BARTOLO", "MUNICIPIO": "LARES" }, "geometry": { "type": "Point", "coordinates": [ -7439835.616453426, 2058742.4562023559 ] } },
{ "type": "Feature", "properties": { "NOMBRE": "HOSPITAL METROPOLITANO MONTAÑA", "DIR": "Calle Isaac Gonzalez", "PR": null, "ZIP": null, "TEL": "787 894-6052", "BARRIO": "BARRIO PUEBLO", "MUNICIPIO": "UTUADO" }, "geometry": { "type": "Point", "coordinates": [ -7425207.0228660321, 2068921.1182858055 ] } },
{ "type": "Feature", "properties": { "NOMBRE": "HOSPITAL SUSANA CENTENO", "DIR": "carr. 997", "PR": null, "ZIP": null, "TEL": "741-0575", "BARRIO": "FLORIDA", "MUNICIPIO": "VIEQUES" }, "geometry": { "type": "Point", "coordinates": [ -7284709.4994297978, 2054191.2198747592 ] } },
{ "type": "Feature", "properties": { "NOMBRE": "HOSPITAL SAN PABLO DEL ESTE", "DIR": "Carr. 194 Ave. Valero, Sector Media Luna", "PR": null, "ZIP": null, "TEL": "787-863-0505", "BARRIO": "BARRIO PUEBLO", "MUNICIPIO": "FAJARDO" }, "geometry": { "type": "Point", "coordinates": [ -7308635.1621441534, 2076983.2039024585 ] } },
{ "type": "Feature", "properties": { "NOMBRE": "HOSPITAL CARIBBEAN", "DIR": "AVE OSVALDO MOLINA", "PR": "PR", "ZIP": "00738-0846", "TEL": "787-801-0081", "BARRIO": "BARRIO PUEBLO", "MUNICIPIO": "FAJARDO" }, "geometry": { "type": "Point", "coordinates": [ -7308146.4978177929, 2076452.6506912173 ] } },
{ "type": "Feature", "properties": { "NOMBRE": "HOSPITAL CRISTO REDENTOR", "DIR": null, "PR": null, "ZIP": null, "TEL": "787-864-4300", "BARRIO": "BARRIO PUEBLO", "MUNICIPIO": "GUAYAMA" }, "geometry": { "type": "Point", "coordinates": [ -7359824.9996822923, 2034450.9269732519 ] } },
{ "type": "Feature", "properties": { "NOMBRE": "CENTRO REHABILITACIONAL AMSCA", "DIR": "CARR # 14 KM 69.3 ANT HOSPITAL BOX", "PR": "PR", "ZIP": "00733", "TEL": "809-738-2141", "BARRIO": "BARRIO PUEBLO", "MUNICIPIO": "CAYEY" }, "geometry": { "type": "Point", "coordinates": [ -7366335.245807115, 2051145.080818753 ] } },
{ "type": "Feature", "properties": { "NOMBRE": "HOSPITAL GENERAL MENONITA", "DIR": "carr. 14, interior, Bo. Rincon", "PR": "PR", "ZIP": "00737-1247", "TEL": "809-738-3011", "BARRIO": "RINCON", "MUNICIPIO": "CAYEY" }, "geometry": { "type": "Point", "coordinates": [ -7363508.5187138459, 2052064.4484513262 ] } },
{ "type": "Feature", "properties": { "NOMBRE": "CLINICA LAFAYETTE", "DIR": "carr. #753, km 0.2", "PR": null, "ZIP": null, "TEL": "839-3232", "BARRIO": "PITAHAYA", "MUNICIPIO": "ARROYO" }, "geometry": { "type": "Point", "coordinates": [ -7353594.2979819626, 2034713.026891534 ] } },
{ "type": "Feature", "properties": { "NOMBRE": "HOSPITAL SANTA ROSA 2", "DIR": null, "PR": null, "ZIP": null, "TEL": null, "BARRIO": "BARRIO PUEBLO", "MUNICIPIO": "GUAYAMA" }, "geometry": { "type": "Point", "coordinates": [ -7358694.0829468155, 2035496.8214711433 ] } },
{ "type": "Feature", "properties": { "NOMBRE": "HOSPITAL SANTA ROSA 1", "DIR": null, "PR": null, "ZIP": null, "TEL": null, "BARRIO": "BARRIO PUEBLO", "MUNICIPIO": "GUAYAMA" }, "geometry": { "type": "Point", "coordinates": [ -7358958.1170125287, 2035188.1566151285 ] } },
{ "type": "Feature", "properties": { "NOMBRE": "FISRT HOSPITAL PANAMERICANO", "DIR": "carr. 2 km 46.7", "PR": null, "ZIP": null, "TEL": "854-0001", "BARRIO": "COTO NORTE", "MUNICIPIO": "MANATI" }, "geometry": { "type": "Point", "coordinates": [ -7398410.3329316257, 2088686.6145433332 ] } },
{ "type": "Feature", "properties": { "NOMBRE": "HOSPITAL ALEJANDRO OTERO LOPEZ", "DIR": "Urb. Atenas calle Hernandez Carrion", "PR": "PR", "ZIP": "00674-1142", "TEL": "621-3700", "BARRIO": "BARRIO PUEBLO", "MUNICIPIO": "MANATI" }, "geometry": { "type": "Point", "coordinates": [ -7400783.4139003968, 2088487.2855156315 ] } },
{ "type": "Feature", "properties": { "NOMBRE": "PROFESIONAL HOSPITAL INC.", "DIR": "CARR # 2 KM 49.5  INTER 685 BOX 99", "PR": "PR", "ZIP": "00674-0991", "TEL": "854-2091", "BARRIO": "BARRIO PUEBLO", "MUNICIPIO": "MANATI" }, "geometry": { "type": "Point", "coordinates": [ -7402073.4450028613, 2087941.671603296 ] } },
{ "type": "Feature", "properties": { "NOMBRE": "HOSPITAL DOCTOR'S CENTER", "DIR": "CARR  # 2 KM 47.7 BOX 30532", "PR": "PR", "ZIP": "00674-0582", "TEL": "809-854-3322", "BARRIO": "COTO NORTE", "MUNICIPIO": "MANATI" }, "geometry": { "type": "Point", "coordinates": [ -7399865.7759010457, 2088406.2961826993 ] } },
{ "type": "Feature", "properties": { "NOMBRE": "HOSPITAL POLICLINICA LA MERCED", "DIR": "carr. 642 esq. calle Ramon Perez", "PR": null, "ZIP": null, "TEL": "822-3446", "BARRIO": "FLORIDA ADENTRO", "MUNICIPIO": "FLORIDA" }, "geometry": { "type": "Point", "coordinates": [ -7410005.8361219708, 2080100.5912501928 ] } },
{ "type": "Feature", "properties": { "NOMBRE": "HOSPITAL FLORIDA MEDICAL PLAZA", "DIR": "Carr. 642", "PR": null, "ZIP": null, "TEL": "822-3446", "BARRIO": "FLORIDA ADENTRO", "MUNICIPIO": "FLORIDA" }, "geometry": { "type": "Point", "coordinates": [ -7410324.5518684266, 2080210.6572401917 ] } },
{ "type": "Feature", "properties": { "NOMBRE": "ARECIBO MEDICAL CENTER", "DIR": "CARR 2 KM 80.1  BO SAN DANIEL BX AM", "PR": "PR", "ZIP": "00613", "TEL": "809-878-3000", "BARRIO": "HATO ABAJO", "MUNICIPIO": "ARECIBO" }, "geometry": { "type": "Point", "coordinates": [ -7431156.274384642, 2093507.4614462405 ] } },
{ "type": "Feature", "properties": { "NOMBRE": "HOSP-REG DR. CAYETANO COLL", "DIR": "AVE SAN LUIS CARR #129 KM .7 BOX 39", "PR": "PR", "ZIP": "00613", "TEL": "878-7272", "BARRIO": "BARRIO PUEBLO", "MUNICIPIO": "ARECIBO" }, "geometry": { "type": "Point", "coordinates": [ -7428493.7566593718, 2092300.3770074379 ] } },
{ "type": "Feature", "properties": { "NOMBRE": "HOSPITAL DR. SUSONI INC.", "DIR": "CALLE PALMA # 55 BOX 1298", "PR": "PR", "ZIP": "00613-1298", "TEL": "809-878-1010", "BARRIO": "BARRIO PUEBLO", "MUNICIPIO": "ARECIBO" }, "geometry": { "type": "Point", "coordinates": [ -7426882.3271652861, 2093023.4864854764 ] } },
{ "type": "Feature", "properties": { "NOMBRE": "HOSPITAL EL BUEN PASTOR", "DIR": "AVE. JOSE DE DIEGO #52 BOX 413", "PR": "PR", "ZIP": "00612", "TEL": "809-878-2730", "BARRIO": "BARRIO PUEBLO", "MUNICIPIO": "ARECIBO" }, "geometry": { "type": "Point", "coordinates": [ -7426593.6869672807, 2092957.3854109664 ] } },
{ "type": "Feature", "properties": { "NOMBRE": "HOSPITAL METROPOLITANO", "DIR": null, "PR": null, "ZIP": null, "TEL": null, "BARRIO": "HATO ABAJO", "MUNICIPIO": "ARECIBO" }, "geometry": { "type": "Point", "coordinates": [ -7430249.9026689352, 2091115.8422880198 ] } },
{ "type": "Feature", "properties": { "NOMBRE": "HOSPITAL RYDER MEMORIAL", "DIR": "C\/FONTMARTELO BOX 859", "PR": "PR", "ZIP": "00792-0859", "TEL": "809-852-0768", "BARRIO": "MABU", "MUNICIPIO": "HUMACAO" }, "geometry": { "type": "Point", "coordinates": [ -7328744.1403023237, 2055821.0649839821 ] } },
{ "type": "Feature", "properties": { "NOMBRE": "DR. DOMINGUEZ", "DIR": "ave. Font Martelo #300", "PR": null, "ZIP": null, "TEL": "852-0505", "BARRIO": "MABU", "MUNICIPIO": "HUMACAO" }, "geometry": { "type": "Point", "coordinates": [ -7328607.502799578, 2055437.4235158467 ] } },
{ "type": "Feature", "properties": { "NOMBRE": "HOSPITAL HIMA", "DIR": "Ave. Font Martelo #3", "PR": null, "ZIP": null, "TEL": "656-2424", "BARRIO": "BARRIO PUEBLO", "MUNICIPIO": "HUMACAO" }, "geometry": { "type": "Point", "coordinates": [ -7327798.100438999, 2055201.6998468863 ] } },
{ "type": "Feature", "properties": { "NOMBRE": "POLICLINICA BELLA VISTA", "DIR": "carr. 125", "PR": null, "ZIP": null, "TEL": "896-9000", "BARRIO": "BAHOMAMEY", "MUNICIPIO": "SAN SEBASTIAN" }, "geometry": { "type": "Point", "coordinates": [ -7458204.4505405109, 2077511.8647372145 ] } },
{ "type": "Feature", "properties": { "NOMBRE": "CENTRO CIRUGIA AMBULATORIA", "DIR": "calle Jose Mendez Cardona", "PR": "PR", "ZIP": "00685", "TEL": "809-896-1850", "BARRIO": "BAHOMAMEY", "MUNICIPIO": "SAN SEBASTIAN" }, "geometry": { "type": "Point", "coordinates": [ -7457769.231947952, 2077081.3728393295 ] } },
{ "type": "Feature", "properties": { "NOMBRE": "HOSPITAL SAN CARLOS", "DIR": "carr. 110 km 12.1", "PR": null, "ZIP": null, "TEL": "877-8000", "BARRIO": "PUEBLO", "MUNICIPIO": "MOCA" }, "geometry": { "type": "Point", "coordinates": [ -7470649.8749828273, 2083281.6411112885 ] } },
{ "type": "Feature", "properties": { "NOMBRE": "CENTRO DE METADONA", "DIR": "CALLE JOSE CELSO BARBOSA BOX 441", "PR": "PR", "ZIP": "00676-0441", "TEL": "809-877-4744", "BARRIO": "BARRIO PUEBLO", "MUNICIPIO": "MOCA" }, "geometry": { "type": "Point", "coordinates": [ -7470724.9761861619, 2083733.1049573249 ] } },
{ "type": "Feature", "properties": { "NOMBRE": "POLICLINICA DEL ATLANTICO", "DIR": "carr. 2 km 111.3 interior", "PR": null, "ZIP": null, "TEL": "830-7737", "BARRIO": "MORA", "MUNICIPIO": "ISABELA" }, "geometry": { "type": "Point", "coordinates": [ -7460800.0211027814, 2092972.2257215953 ] } },
{ "type": "Feature", "properties": { "NOMBRE": "BIO MED APPLIC OF AGUADILL", "DIR": "CARR # 459 BO CAMASELLAS", "PR": "PR", "ZIP": "00603", "TEL": "809-891-8300", "BARRIO": "CAMACEYES", "MUNICIPIO": "AGUADILLA" }, "geometry": { "type": "Point", "coordinates": [ -7473606.4449098883, 2090908.6208325406 ] } },
{ "type": "Feature", "properties": { "NOMBRE": "AGUADILLA MEDICAL SERVICE", "DIR": "carr. 2 km 129.3, Aguadilla", "PR": null, "ZIP": null, "TEL": "882-0303", "BARRIO": "VICTORIA", "MUNICIPIO": "AGUADILLA" }, "geometry": { "type": "Point", "coordinates": [ -7475274.4354819823, 2085810.1385513053 ] } },
{ "type": "Feature", "properties": { "NOMBRE": "RINCON HEALTH CENTER", "DIR": null, "PR": null, "ZIP": null, "TEL": null, "BARRIO": "RINCON", "MUNICIPIO": "RINCON" }, "geometry": { "type": "Point", "coordinates": [ -7486446.0136169354, 2077232.6310641707 ] } },
{ "type": "Feature", "properties": { "NOMBRE": "HOSPITAL METROPOLITANO", "DIR": "C\/ Javilla # 41 BOX 235", "PR": "PR", "ZIP": "00683-0235", "TEL": "892-5300", "BARRIO": "BARRIO PUEBLO", "MUNICIPIO": "SAN GERMAN" }, "geometry": { "type": "Point", "coordinates": [ -7462872.6707282569, 2047225.0333892158 ] } },
{ "type": "Feature", "properties": { "NOMBRE": "HOSPITAL DE LA CONCEPCION", "DIR": "carr. 2 int. carr 361 #41 BOX 285", "PR": "PR", "ZIP": "00683-0285", "TEL": "809-892-1830", "BARRIO": "CAIN ALTO", "MUNICIPIO": "SAN GERMAN" }, "geometry": { "type": "Point", "coordinates": [ -7462659.1688144151, 2049118.2424384498 ] } },
{ "type": "Feature", "properties": { "NOMBRE": "C.D.T. BERNICE GUERRA", "DIR": "CARR # 102 KM 39.2", "PR": "PR", "ZIP": "00637", "TEL": "873-0060", "BARRIO": "SANTANA", "MUNICIPIO": "SABANA GRANDE" }, "geometry": { "type": "Point", "coordinates": [ -7456127.7017379124, 2047045.8784994367 ] } },
{ "type": "Feature", "properties": { "NOMBRE": "HOSPITAL SAN ANTONIO", "DIR": "Calle Jose de Diego int. Ramal 2", "PR": null, "ZIP": null, "TEL": "834-0050", "BARRIO": "BARRIO PUEBLO", "MUNICIPIO": "MAYAGUEZ" }, "geometry": { "type": "Point", "coordinates": [ -7474107.8923907727, 2061348.5983420408 ] } },
{ "type": "Feature", "properties": { "NOMBRE": "FONDO SEGURO ESTADO", "DIR": null, "PR": null, "ZIP": null, "TEL": null, "BARRIO": "SABALOS", "MUNICIPIO": "MAYAGUEZ" }, "geometry": { "type": "Point", "coordinates": [ -7474796.8780596107, 2057826.7726621623 ] } },
{ "type": "Feature", "properties": { "NOMBRE": "CENTRO RENAL", "DIR": null, "PR": null, "ZIP": null, "TEL": null, "BARRIO": "SABALOS", "MUNICIPIO": "MAYAGUEZ" }, "geometry": { "type": "Point", "coordinates": [ -7474675.5163272386, 2057847.7141467126 ] } },
{ "type": "Feature", "properties": { "NOMBRE": "REHABILITACION VOCACIONAL", "DIR": "CARR # 2 BO SABALOS CENTRO MEDICO", "PR": "PR", "ZIP": "00680", "TEL": "809-832-9284", "BARRIO": "SABALOS", "MUNICIPIO": "MAYAGUEZ" }, "geometry": { "type": "Point", "coordinates": [ -7475329.4864982618, 2058485.6666578623 ] } },
{ "type": "Feature", "properties": { "NOMBRE": "HOSPITAL VETERANO", "DIR": "CARR # 2 KM 157 BO SABALO", "PR": "PR", "ZIP": "00680", "TEL": null, "BARRIO": "SABALOS", "MUNICIPIO": "MAYAGUEZ" }, "geometry": { "type": "Point", "coordinates": [ -7475149.8942890605, 2059292.7405516501 ] } },
{ "type": "Feature", "properties": { "NOMBRE": "HOSP-GEN DR. RAMON BETANCE", "DIR": "CARR # 2 KM 157 BO.SABALOS", "PR": "PR", "ZIP": "00680", "TEL": "809-834-8686", "BARRIO": "SABALOS", "MUNICIPIO": "MAYAGUEZ" }, "geometry": { "type": "Point", "coordinates": [ -7475417.3396985056, 2058700.1853518584 ] } },
{ "type": "Feature", "properties": { "NOMBRE": "HOSPITAL BELLA VISTA", "DIR": "CARR # 349 KM 2.7 CERRO LAS MESAS", "PR": "PR", "ZIP": "00680-1750", "TEL": "809-834-6000", "BARRIO": "QUEBRADA GRANDE", "MUNICIPIO": "MAYAGUEZ" }, "geometry": { "type": "Point", "coordinates": [ -7471669.0988921542, 2059432.144724803 ] } },
{ "type": "Feature", "properties": { "NOMBRE": "HOSPITAL DR. ROVIRA", "DIR": "CALLE RUIZ BELVIS # 2", "PR": "PR", "ZIP": "00660", "TEL": "809-849-2405", "BARRIO": "BARRIO PUEBLO", "MUNICIPIO": "HORMIGUEROS" }, "geometry": { "type": "Point", "coordinates": [ -7472731.9786968539, 2053862.4663939965 ] } },
{ "type": "Feature", "properties": { "NOMBRE": "METROPOLITANO", "DIR": null, "PR": null, "ZIP": null, "TEL": null, "BARRIO": "MONTE GRANDE", "MUNICIPIO": "CABO ROJO" }, "geometry": { "type": "Point", "coordinates": [ -7474631.1579091381, 2047104.5235664824 ] } },
{ "type": "Feature", "properties": { "NOMBRE": "DR PEREA", "DIR": null, "PR": null, "ZIP": null, "TEL": null, "BARRIO": "BARRIO PUEBLO", "MUNICIPIO": "MAYAGUEZ" }, "geometry": { "type": "Point", "coordinates": [ -7473988.0924071437, 2061294.9768989605 ] } }
]
}
