{
"type": "FeatureCollection",
                                                                                
"features": [
{ "type": "Feature", "properties": { "Buoy": 1.000000, "lat": 18.297880, "long": -65.301800, "lat2": "N18 17.873", "long2": "W65 18.108", "Type": "Ecological mooring buoys", "Depth": 5.000000, "SeaBottom": "Seagrass", "Comment": null, "Location": "Bahia Linda", "Municipali": "Culebra" }, "geometry": { "type": "Point", "coordinates": [ -7269363.1238841917, 2072444.51393942 ] } },
{ "type": "Feature", "properties": { "Buoy": 2.000000, "lat": 18.297770, "long": -65.301430, "lat2": "N18 17.866", "long2": "W65 18.086", "Type": "Ecological mooring buoys", "Depth": 5.000000, "SeaBottom": "Seagrass", "Comment": null, "Location": "Bahia Linda", "Municipali": "Culebra" }, "geometry": { "type": "Point", "coordinates": [ -7269321.9356725989, 2072431.616676226 ] } },
{ "type": "Feature", "properties": { "Buoy": 3.000000, "lat": 18.297580, "long": -65.301170, "lat2": "N18 17.855", "long2": "W65 18.07", "Type": "Ecological mooring buoys", "Depth": 5.000000, "SeaBottom": "Seagrass", "Comment": null, "Location": "Bahia Linda", "Municipali": "Culebra" }, "geometry": { "type": "Point", "coordinates": [ -7269292.9926049924, 2072409.3396045414 ] } },
{ "type": "Feature", "properties": { "Buoy": 4.000000, "lat": 18.297250, "long": -65.301020, "lat2": "N18 17.835", "long2": "W65 18.061", "Type": "Ecological mooring buoys", "Depth": 5.000000, "SeaBottom": "Seagrass", "Comment": null, "Location": "Bahia Linda", "Municipali": "Culebra" }, "geometry": { "type": "Point", "coordinates": [ -7269276.2946813731, 2072370.6479065134 ] } },
{ "type": "Feature", "properties": { "Buoy": 5.000000, "lat": 18.297550, "long": -65.301900, "lat2": "N18 17.853", "long2": "W65 18.114", "Type": "Ecological mooring buoys", "Depth": 10.000000, "SeaBottom": "Seagrass", "Comment": null, "Location": "Bahia Linda", "Municipali": "Culebra" }, "geometry": { "type": "Point", "coordinates": [ -7269374.2558332719, 2072405.8221744031 ] } },
{ "type": "Feature", "properties": { "Buoy": 6.000000, "lat": 18.297350, "long": -65.301580, "lat2": "N18 17.841", "long2": "W65 18.095", "Type": "Ecological mooring buoys", "Depth": 10.000000, "SeaBottom": "Seagrass", "Comment": null, "Location": "Bahia Linda", "Municipali": "Culebra" }, "geometry": { "type": "Point", "coordinates": [ -7269338.6335962173, 2072382.3726557097 ] } },
{ "type": "Feature", "properties": { "Buoy": 7.000000, "lat": 18.297070, "long": -65.301370, "lat2": "N18 17.824", "long2": "W65 18.082", "Type": "Ecological mooring buoys", "Depth": 10.000000, "SeaBottom": "Seagrass", "Comment": null, "Location": "Bahia Linda", "Municipali": "Culebra" }, "geometry": { "type": "Point", "coordinates": [ -7269315.2565031517, 2072349.5433750129 ] } },
{ "type": "Feature", "properties": { "Buoy": 18.000000, "lat": 18.254180, "long": -65.587920, "lat2": "N18 15.251", "long2": "W65 35.275", "Type": "Ecological mooring buoys", "Depth": 10.000000, "SeaBottom": "Seagrass", "Comment": null, "Location": "Isla Piñero", "Municipali": "Ceiba" }, "geometry": { "type": "Point", "coordinates": [ -7301213.8565899627, 2067321.4269141471 ] } },
{ "type": "Feature", "properties": { "Buoy": 19.000000, "lat": 18.254070, "long": -65.588180, "lat2": "N18 15.244", "long2": "W65 35.291", "Type": "Ecological mooring buoys", "Depth": 10.000000, "SeaBottom": "Seagrass", "Comment": "Cambio", "Location": "Isla Piñero", "Municipali": "Ceiba" }, "geometry": { "type": "Point", "coordinates": [ -7301242.7996575693, 2067308.5328991979 ] } },
{ "type": "Feature", "properties": { "Buoy": 20.000000, "lat": 18.254020, "long": -65.588450, "lat2": "N18 15.241", "long2": "W65 35.307", "Type": "Ecological mooring buoys", "Depth": 10.000000, "SeaBottom": "Seagrass", "Comment": null, "Location": "Isla Piñero", "Municipali": "Ceiba" }, "geometry": { "type": "Point", "coordinates": [ -7301272.8559200829, 2067302.671986012 ] } },
{ "type": "Feature", "properties": { "Buoy": 21.000000, "lat": 18.254030, "long": -65.588830, "lat2": "N18 15.242", "long2": "W65 35.330", "Type": "Ecological mooring buoys", "Depth": 10.000000, "SeaBottom": "Seagrass", "Comment": null, "Location": "Isla Piñero", "Municipali": "Ceiba" }, "geometry": { "type": "Point", "coordinates": [ -7301315.1573265865, 2067303.8441685142 ] } },
{ "type": "Feature", "properties": { "Buoy": 22.000000, "lat": 18.246770, "long": -65.585330, "lat2": "N18 14.806", "long2": "W65 35.120", "Type": "Ecological mooring buoys", "Depth": 10.000000, "SeaBottom": "Seagrass", "Comment": null, "Location": "Isla Piñero", "Municipali": "Ceiba" }, "geometry": { "type": "Point", "coordinates": [ -7300925.5391088091, 2066452.8574275051 ] } },
{ "type": "Feature", "properties": { "Buoy": 23.000000, "lat": 18.247030, "long": -65.584350, "lat2": "N18 14.822", "long2": "W65 35.061", "Type": "Ecological mooring buoys", "Depth": 10.000000, "SeaBottom": "Seagrass", "Comment": null, "Location": "Isla Piñero", "Municipali": "Ceiba" }, "geometry": { "type": "Point", "coordinates": [ -7300816.446007832, 2066483.3329228275 ] } },
{ "type": "Feature", "properties": { "Buoy": 24.000000, "lat": 18.247220, "long": -65.583750, "lat2": "N18 14.833", "long2": "W65 35.025", "Type": "Ecological mooring buoys", "Depth": 10.000000, "SeaBottom": "Seagrass", "Comment": null, "Location": "Isla Piñero", "Municipali": "Ceiba" }, "geometry": { "type": "Point", "coordinates": [ -7300749.6543133548, 2066505.6035059344 ] } },
{ "type": "Feature", "properties": { "Buoy": 25.000000, "lat": 18.246380, "long": -65.585150, "lat2": "N18 14.783", "long2": "W65 35.109", "Type": "Ecological mooring buoys", "Depth": 10.000000, "SeaBottom": "Seagrass", "Comment": null, "Location": "Isla Piñero", "Municipali": "Ceiba" }, "geometry": { "type": "Point", "coordinates": [ -7300905.5016004657, 2066407.1442700091 ] } },
{ "type": "Feature", "properties": { "Buoy": 26.000000, "lat": 18.246620, "long": -65.583880, "lat2": "N18 14.797", "long2": "W65 35.033", "Type": "Ecological mooring buoys", "Depth": 10.000000, "SeaBottom": "Seagrass", "Comment": null, "Location": "Isla Piñero", "Municipali": "Ceiba" }, "geometry": { "type": "Point", "coordinates": [ -7300764.1258471571, 2066435.2754317136 ] } },
{ "type": "Feature", "properties": { "Buoy": 30.000000, "lat": 17.950650, "long": -66.871630, "lat2": "N17 57.039", "long2": "W66 52.298", "Type": "Ecological mooring buoys", "Depth": 5.000000, "SeaBottom": "Seagrass", "Comment": null, "Location": "Bahia Ballena", "Municipali": "Guanica" }, "geometry": { "type": "Point", "coordinates": [ -7444115.8001161963, 2031773.0215533851 ] } },
{ "type": "Feature", "properties": { "Buoy": 31.000000, "lat": 17.949970, "long": -66.870680, "lat2": "N17 56.998", "long2": "W66 52.241", "Type": "Ecological mooring buoys", "Depth": 5.000000, "SeaBottom": "Seagrass", "Comment": null, "Location": "Bahia Ballena", "Municipali": "Guanica" }, "geometry": { "type": "Point", "coordinates": [ -7444010.0465999423, 2031693.4511426541 ] } },
{ "type": "Feature", "properties": { "Buoy": 32.000000, "lat": 17.949270, "long": -66.869980, "lat2": "N17 56.956", "long2": "W66 52.199", "Type": "Ecological mooring buoys", "Depth": 5.000000, "SeaBottom": "Seagrass", "Comment": null, "Location": "Bahia Ballena", "Municipali": "Guanica" }, "geometry": { "type": "Point", "coordinates": [ -7443932.1229563877, 2031611.540745283 ] } },
{ "type": "Feature", "properties": { "Buoy": 33.000000, "lat": 17.949550, "long": -66.871930, "lat2": "N17 56.973", "long2": "W66 52.316", "Type": "Ecological mooring buoys", "Depth": 10.000000, "SeaBottom": "Seagrass", "Comment": null, "Location": "Bahia Ballena", "Municipali": "Guanica" }, "geometry": { "type": "Point", "coordinates": [ -7444149.1959634358, 2031644.3048653316 ] } },
{ "type": "Feature", "properties": { "Buoy": 34.000000, "lat": 17.948920, "long": -66.870920, "lat2": "N17 56.935", "long2": "W66 52.255", "Type": "Ecological mooring buoys", "Depth": 10.000000, "SeaBottom": "Seagrass", "Comment": null, "Location": "Bahia Ballena", "Municipali": "Guanica" }, "geometry": { "type": "Point", "coordinates": [ -7444036.7632777337, 2031570.5856681666 ] } },
{ "type": "Feature", "properties": { "Buoy": 35.000000, "lat": 17.910050, "long": -66.896000, "lat2": "N17 54.603", "long2": "W66 53.760", "Type": "Ecological mooring buoys", "Depth": 50.000000, "SeaBottom": "Coral Reef", "Comment": null, "Location": "carrillales", "Municipali": "Guanica" }, "geometry": { "type": "Point", "coordinates": [ -7446828.6561068287, 2027022.7356690075 ] } },
{ "type": "Feature", "properties": { "Buoy": 43.000000, "lat": 17.897570, "long": -66.962780, "lat2": "N17 53.854", "long2": "W66 57.767", "Type": "Ecological mooring buoys", "Depth": 65.000000, "SeaBottom": "Coral Reef", "Comment": null, "Location": "levels", "Municipali": "Guanica" }, "geometry": { "type": "Point", "coordinates": [ -7454262.5717020025, 2025562.7679715357 ] } },
{ "type": "Feature", "properties": { "Buoy": 46.000000, "lat": 18.380730, "long": -65.586370, "lat2": "N18 22.844", "long2": "W65 35.182", "Type": "Ecological mooring buoys", "Depth": 10.000000, "SeaBottom": "Sand", "Comment": null, "Location": "Icaco", "Municipali": "Fajardo" }, "geometry": { "type": "Point", "coordinates": [ -7301041.3113792343, 2082160.8277182716 ] } },
{ "type": "Feature", "properties": { "Buoy": 47.000000, "lat": 18.380080, "long": -65.585880, "lat2": "N18 22.805", "long2": "W65 35.153", "Type": "Ecological mooring buoys", "Depth": 10.000000, "SeaBottom": "Sand", "Comment": null, "Location": "Icaco", "Municipali": "Fajardo" }, "geometry": { "type": "Point", "coordinates": [ -7300986.7648287453, 2082084.5801987268 ] } },
{ "type": "Feature", "properties": { "Buoy": 48.000000, "lat": 18.379450, "long": -65.585150, "lat2": "N18 22.767", "long2": "W65 35.109", "Type": "Ecological mooring buoys", "Depth": 10.000000, "SeaBottom": "Sand", "Comment": null, "Location": "Icaco", "Municipali": "Fajardo" }, "geometry": { "type": "Point", "coordinates": [ -7300905.5016004657, 2082010.6790309907 ] } },
{ "type": "Feature", "properties": { "Buoy": 49.000000, "lat": 17.897250, "long": -66.959820, "lat2": "N17 53.835", "long2": "W66 57.589", "Type": "Ecological mooring buoys", "Depth": 65.000000, "SeaBottom": "Coral Reef", "Comment": null, "Location": "Old Buoy", "Municipali": "Parguera" }, "geometry": { "type": "Point", "coordinates": [ -7453933.0660092551, 2025525.334253083 ] } },
{ "type": "Feature", "properties": { "Buoy": 54.000000, "lat": 17.898150, "long": -66.965130, "lat2": "N17 53.889", "long2": "W66 57.908", "Type": "Ecological mooring buoys", "Depth": 65.000000, "SeaBottom": "Coral Reef", "Comment": null, "Location": "Efras Wall", "Municipali": "Parguera" }, "geometry": { "type": "Point", "coordinates": [ -7454524.1725053675, 2025630.6167583216 ] } },
{ "type": "Feature", "properties": { "Buoy": 58.000000, "lat": 17.932780, "long": -67.011880, "lat2": "N17 55.967", "long2": "W67 00.713", "Type": "Ecological mooring buoys", "Depth": 60.000000, "SeaBottom": "Coral Reef", "Comment": null, "Location": "Pinacles", "Municipali": "Parguera" }, "geometry": { "type": "Point", "coordinates": [ -7459728.3586999541, 2029682.0595478031 ] } },
{ "type": "Feature", "properties": { "Buoy": 60.000000, "lat": 18.163930, "long": -67.278880, "lat2": "N18 09.836", "long2": "W67 16.733", "Type": "Ecological mooring buoys", "Depth": 60.000000, "SeaBottom": "Coral Reef", "Comment": null, "Location": "Road End", "Municipali": "Mayaguez" }, "geometry": { "type": "Point", "coordinates": [ -7489450.662741757, 2056745.2131484584 ] } },
{ "type": "Feature", "properties": { "Buoy": 64.000000, "lat": 18.164550, "long": -67.282000, "lat2": "N18 09.873", "long2": "W67 16.920", "Type": "Ecological mooring buoys", "Depth": 60.000000, "SeaBottom": "Coral Reef", "Comment": null, "Location": "Acuario", "Municipali": "Mayaguez" }, "geometry": { "type": "Point", "coordinates": [ -7489797.9795530317, 2056817.8510095163 ] } },
{ "type": "Feature", "properties": { "Buoy": 68.000000, "lat": 18.164330, "long": -67.292020, "lat2": "N18 09.860", "long2": "W67 17.521", "Type": "Ecological mooring buoys", "Depth": 80.000000, "SeaBottom": "Coral Reef", "Comment": null, "Location": "Jaime", "Municipali": "Mayaguez" }, "geometry": { "type": "Point", "coordinates": [ -7490913.4008507803, 2056792.0762551066 ] } },
{ "type": "Feature", "properties": { "Buoy": 75.000000, "lat": 18.151270, "long": -65.445370, "lat2": "N18 09.076", "long2": "W65 26.722", "Type": "Ecological mooring buoys", "Depth": 10.000000, "SeaBottom": "Seagrass", "Comment": null, "Location": "Isabel Segunda", "Municipali": "Vieques" }, "geometry": { "type": "Point", "coordinates": [ -7285345.2631773818, 2055262.0512686856 ] } },
{ "type": "Feature", "properties": { "Buoy": 76.000000, "lat": 18.151170, "long": -65.444370, "lat2": "N18 09.070", "long2": "W65 26.662", "Type": "Ecological mooring buoys", "Depth": 10.000000, "SeaBottom": "Seagrass", "Comment": null, "Location": "Isabel Segunda", "Municipali": "Vieques" }, "geometry": { "type": "Point", "coordinates": [ -7285233.9436865896, 2055250.3363577605 ] } },
{ "type": "Feature", "properties": { "Buoy": 77.000000, "lat": 18.151600, "long": -65.444080, "lat2": "N18 09.096", "long2": "W65 26.645", "Type": "Ecological mooring buoys", "Depth": 10.000000, "SeaBottom": "Seagrass", "Comment": null, "Location": "Isabel Segunda", "Municipali": "Vieques" }, "geometry": { "type": "Point", "coordinates": [ -7285201.661034259, 2055300.7105222971 ] } },
{ "type": "Feature", "properties": { "Buoy": 78.000000, "lat": 18.152070, "long": -65.444620, "lat2": "N18 09.124", "long2": "W65 26.677", "Type": "Ecological mooring buoys", "Depth": 10.000000, "SeaBottom": "Seagrass", "Comment": null, "Location": "Isabel Segunda", "Municipali": "Vieques" }, "geometry": { "type": "Point", "coordinates": [ -7285261.7735592872, 2055355.7707974038 ] } },
{ "type": "Feature", "properties": { "Buoy": 79.000000, "lat": 18.151770, "long": -65.444900, "lat2": "N18 09.106", "long2": "W65 26.694", "Type": "Ecological mooring buoys", "Depth": 10.000000, "SeaBottom": "Seagrass", "Comment": null, "Location": "Isabel Segunda", "Municipali": "Vieques" }, "geometry": { "type": "Point", "coordinates": [ -7285292.9430167098, 2055320.6259238583 ] } },
{ "type": "Feature", "properties": { "Buoy": 80.000000, "lat": 18.134380, "long": -65.513550, "lat2": "N18 08.063", "long2": "W65 30.813", "Type": "Ecological mooring buoys", "Depth": 10.000000, "SeaBottom": "Seagrass", "Comment": null, "Location": "Mosquito Pier", "Municipali": "Vieques" }, "geometry": { "type": "Point", "coordinates": [ -7292935.0260596676, 2053283.4978238395 ] } },
{ "type": "Feature", "properties": { "Buoy": 81.000000, "lat": 18.133470, "long": -65.513800, "lat2": "N18 08.008", "long2": "W65 30.828", "Type": "Ecological mooring buoys", "Depth": 5.000000, "SeaBottom": "Seagrass", "Comment": null, "Location": "Mosquito Pier", "Municipali": "Vieques" }, "geometry": { "type": "Point", "coordinates": [ -7292962.855932367, 2053176.9026782275 ] } },
{ "type": "Feature", "properties": { "Buoy": 82.000000, "lat": 18.133920, "long": -65.515170, "lat2": "N18 08.035", "long2": "W65 30.910", "Type": "Ecological mooring buoys", "Depth": 10.000000, "SeaBottom": "Seagrass", "Comment": null, "Location": "Mosquito Pier", "Municipali": "Vieques" }, "geometry": { "type": "Point", "coordinates": [ -7293115.3636347521, 2053229.61449412 ] } },
{ "type": "Feature", "properties": { "Buoy": 83.000000, "lat": 18.132720, "long": -65.515120, "lat2": "N18 07.963", "long2": "W65 30.907", "Type": "Ecological mooring buoys", "Depth": 5.000000, "SeaBottom": "Seagrass", "Comment": null, "Location": "Mosquito Pier", "Municipali": "Vieques" }, "geometry": { "type": "Point", "coordinates": [ -7293109.797660213, 2053089.0499530332 ] } },
{ "type": "Feature", "properties": { "Buoy": 0.000000, "lat": 0.000000, "long": 0.000000, "lat2": null, "long2": null, "Type": "Ecological mooring buoys", "Depth": 0.000000, "SeaBottom": null, "Comment": null, "Location": "Almodoval", "Municipali": "Culebra" }, "geometry": { "type": "Point", "coordinates": [ -7263984.1660890607, 2072341.3360631273 ] } },
{ "type": "Feature", "properties": { "Buoy": 0.000000, "lat": 0.000000, "long": 0.000000, "lat2": null, "long2": null, "Type": "Ecological mooring buoys", "Depth": 0.000000, "SeaBottom": null, "Comment": null, "Location": "Almodoval", "Municipali": "Culebra" }, "geometry": { "type": "Point", "coordinates": [ -7264006.429987221, 2072303.8169653011 ] } },
{ "type": "Feature", "properties": { "Buoy": 0.000000, "lat": 0.000000, "long": 0.000000, "lat2": null, "long2": null, "Type": "Ecological mooring buoys", "Depth": 0.000000, "SeaBottom": null, "Comment": null, "Location": "Almodoval", "Municipali": "Culebra" }, "geometry": { "type": "Point", "coordinates": [ -7263986.3924788777, 2072537.1399792857 ] } },
{ "type": "Feature", "properties": { "Buoy": 0.000000, "lat": 0.000000, "long": 0.000000, "lat2": null, "long2": null, "Type": "Ecological mooring buoys", "Depth": 0.000000, "SeaBottom": null, "Comment": null, "Location": "Almodoval", "Municipali": "Culebra" }, "geometry": { "type": "Point", "coordinates": [ -7263983.0528941518, 2072487.8957029798 ] } },
{ "type": "Feature", "properties": { "Buoy": 0.000000, "lat": 0.000000, "long": 0.000000, "lat2": null, "long2": null, "Type": "Ecological mooring buoys", "Depth": 0.000000, "SeaBottom": null, "Comment": null, "Location": "Almodoval", "Municipali": "Culebra" }, "geometry": { "type": "Point", "coordinates": [ -7263983.0528941518, 2072438.6515460452 ] } },
{ "type": "Feature", "properties": { "Buoy": 0.000000, "lat": 0.000000, "long": 0.000000, "lat2": null, "long2": null, "Type": "Ecological mooring buoys", "Depth": 0.000000, "SeaBottom": null, "Comment": null, "Location": "Almodoval", "Municipali": "Culebra" }, "geometry": { "type": "Point", "coordinates": [ -7263983.0528941518, 2072378.8552302408 ] } },
{ "type": "Feature", "properties": { "Buoy": 0.000000, "lat": 0.000000, "long": 0.000000, "lat2": null, "long2": null, "Type": "Ecological mooring buoys", "Depth": 0.000000, "SeaBottom": null, "Comment": null, "Location": "culebrita", "Municipali": "Culebra" }, "geometry": { "type": "Point", "coordinates": [ -7261267.9705137052, 2074827.1307144847 ] } },
{ "type": "Feature", "properties": { "Buoy": 0.000000, "lat": 0.000000, "long": 0.000000, "lat2": null, "long2": null, "Type": "Ecological mooring buoys", "Depth": 0.000000, "SeaBottom": null, "Comment": null, "Location": "culebrita", "Municipali": "Culebra" }, "geometry": { "type": "Point", "coordinates": [ -7261303.5927507579, 2074830.6485641003 ] } },
{ "type": "Feature", "properties": { "Buoy": 0.000000, "lat": 0.000000, "long": 0.000000, "lat2": null, "long2": null, "Type": "Ecological mooring buoys", "Depth": 0.000000, "SeaBottom": null, "Comment": null, "Location": "culebrita", "Municipali": "Culebra" }, "geometry": { "type": "Point", "coordinates": [ -7261306.9323354829, 2074862.3092380757 ] } },
{ "type": "Feature", "properties": { "Buoy": 0.000000, "lat": 0.000000, "long": 0.000000, "lat2": null, "long2": null, "Type": "Ecological mooring buoys", "Depth": 0.000000, "SeaBottom": null, "Comment": null, "Location": "culebrita", "Municipali": "Culebra" }, "geometry": { "type": "Point", "coordinates": [ -7261259.064954442, 2074882.2437618473 ] } },
{ "type": "Feature", "properties": { "Buoy": 0.000000, "lat": 0.000000, "long": 0.000000, "lat2": null, "long2": null, "Type": "Ecological mooring buoys", "Depth": 0.000000, "SeaBottom": null, "Comment": null, "Location": "piedra dominicano", "Municipali": "Guanica" }, "geometry": { "type": "Point", "coordinates": [ -7449548.1912669074, 2025787.3717001711 ] } },
{ "type": "Feature", "properties": { "Buoy": 0.000000, "lat": 0.000000, "long": 0.000000, "lat2": null, "long2": null, "Type": "Ecological mooring buoys", "Depth": 0.000000, "SeaBottom": null, "Comment": null, "Location": "no name", "Municipali": "Guanica" }, "geometry": { "type": "Point", "coordinates": [ -7448551.8818243081, 2026078.6582813929 ] } },
{ "type": "Feature", "properties": { "Buoy": 0.000000, "lat": 0.000000, "long": 0.000000, "lat2": null, "long2": null, "Type": "Ecological mooring buoys", "Depth": 0.000000, "SeaBottom": null, "Comment": null, "Location": "cueva frankies", "Municipali": "Guanica" }, "geometry": { "type": "Point", "coordinates": [ -7448835.7465258306, 2026009.638199728 ] } },
{ "type": "Feature", "properties": { "Buoy": 0.000000, "lat": 0.000000, "long": 0.000000, "lat2": null, "long2": null, "Type": "Ecological mooring buoys", "Depth": 0.000000, "SeaBottom": null, "Comment": null, "Location": "trinchera", "Municipali": "Guanica" }, "geometry": { "type": "Point", "coordinates": [ -7452422.4605191909, 2025657.5223731238 ] } },
{ "type": "Feature", "properties": { "Buoy": 0.000000, "lat": 0.000000, "long": 0.000000, "lat2": null, "long2": null, "Type": "Ecological mooring buoys", "Depth": 0.000000, "SeaBottom": null, "Comment": null, "Location": "negro", "Municipali": "Guanica" }, "geometry": { "type": "Point", "coordinates": [ -7452394.6306464914, 2027088.2494488182 ] } },
{ "type": "Feature", "properties": { "Buoy": 0.000000, "lat": 0.000000, "long": 0.000000, "lat2": null, "long2": null, "Type": "Ecological mooring buoys", "Depth": 0.000000, "SeaBottom": null, "Comment": null, "Location": "aquarium", "Municipali": "Guanica" }, "geometry": { "type": "Point", "coordinates": [ -7454480.7579039596, 2026086.847119876 ] } },
{ "type": "Feature", "properties": { "Buoy": 0.000000, "lat": 0.000000, "long": 0.000000, "lat2": null, "long2": null, "Type": "Ecological mooring buoys", "Depth": 0.000000, "SeaBottom": null, "Comment": null, "Location": "two for you", "Municipali": "Guanica" }, "geometry": { "type": "Point", "coordinates": [ -7453891.8777976632, 2025528.8436613209 ] } },
{ "type": "Feature", "properties": { "Buoy": 0.000000, "lat": 0.000000, "long": 0.000000, "lat2": null, "long2": null, "Type": "Ecological mooring buoys", "Depth": 0.000000, "SeaBottom": null, "Comment": null, "Location": "efra", "Municipali": "Guanica" }, "geometry": { "type": "Point", "coordinates": [ -7454439.5696923649, 2025603.7111784022 ] } },
{ "type": "Feature", "properties": { "Buoy": 0.000000, "lat": 0.000000, "long": 0.000000, "lat2": null, "long2": null, "Type": "Ecological mooring buoys", "Depth": 0.000000, "SeaBottom": null, "Comment": null, "Location": "turrumote", "Municipali": "Guanica" }, "geometry": { "type": "Point", "coordinates": [ -7455662.9708961817, 2029429.3330580823 ] } },
{ "type": "Feature", "properties": { "Buoy": 0.000000, "lat": 0.000000, "long": 0.000000, "lat2": null, "long2": null, "Type": "Ecological mooring buoys", "Depth": 0.000000, "SeaBottom": null, "Comment": null, "Location": "Black wall", "Municipali": "Parguera" }, "geometry": { "type": "Point", "coordinates": [ -7460198.1269510994, 2024094.7149127661 ] } },
{ "type": "Feature", "properties": { "Buoy": 0.000000, "lat": 0.000000, "long": 0.000000, "lat2": null, "long2": null, "Type": "Ecological mooring buoys", "Depth": 0.000000, "SeaBottom": null, "Comment": null, "Location": "Canyons", "Municipali": "Parguera" }, "geometry": { "type": "Point", "coordinates": [ -7455605.0847609704, 2025272.6584194389 ] } },
{ "type": "Feature", "properties": { "Buoy": 0.000000, "lat": 0.000000, "long": 0.000000, "lat2": null, "long2": null, "Type": "Ecological mooring buoys", "Depth": 0.000000, "SeaBottom": null, "Comment": null, "Location": "Chimney", "Municipali": "Parguera" }, "geometry": { "type": "Point", "coordinates": [ -7463203.7532025184, 2023439.6808984014 ] } },
{ "type": "Feature", "properties": { "Buoy": 0.000000, "lat": 0.000000, "long": 0.000000, "lat2": null, "long2": null, "Type": "Ecological mooring buoys", "Depth": 0.000000, "SeaBottom": null, "Comment": null, "Location": "Coral Garden", "Municipali": "Parguera" }, "geometry": { "type": "Point", "coordinates": [ -7458802.1805365533, 2024377.7895760734 ] } },
{ "type": "Feature", "properties": { "Buoy": 0.000000, "lat": 0.000000, "long": 0.000000, "lat2": null, "long2": null, "Type": "Ecological mooring buoys", "Depth": 0.000000, "SeaBottom": null, "Comment": null, "Location": "Star", "Municipali": "Parguera" }, "geometry": { "type": "Point", "coordinates": [ -7458844.4819430541, 2024578.9854843966 ] } },
{ "type": "Feature", "properties": { "Buoy": 0.000000, "lat": 0.000000, "long": 0.000000, "lat2": null, "long2": null, "Type": "Ecological mooring buoys", "Depth": 0.000000, "SeaBottom": null, "Comment": null, "Location": "Forest", "Municipali": "Parguera" }, "geometry": { "type": "Point", "coordinates": [ -7459964.3560204348, 2024931.0830152275 ] } },
{ "type": "Feature", "properties": { "Buoy": 0.000000, "lat": 0.000000, "long": 0.000000, "lat2": null, "long2": null, "Type": "Ecological mooring buoys", "Depth": 0.000000, "SeaBottom": null, "Comment": null, "Location": "Hole in the Wall", "Municipali": "Parguera" }, "geometry": { "type": "Point", "coordinates": [ -7460871.6098703993, 2024104.0726912073 ] } },
{ "type": "Feature", "properties": { "Buoy": 0.000000, "lat": 0.000000, "long": 0.000000, "lat2": null, "long2": null, "Type": "Ecological mooring buoys", "Depth": 0.000000, "SeaBottom": null, "Comment": null, "Location": "4 de marzo", "Municipali": "Parguera" }, "geometry": { "type": "Point", "coordinates": [ -7463378.5248030638, 2023357.8030989114 ] } },
{ "type": "Feature", "properties": { "Buoy": 0.000000, "lat": 0.000000, "long": 0.000000, "lat2": null, "long2": null, "Type": "Ecological mooring buoys", "Depth": 0.000000, "SeaBottom": null, "Comment": null, "Location": "Poza Negro 2", "Municipali": "Mayaguez" }, "geometry": { "type": "Point", "coordinates": [ -7487301.0833745385, 2055784.5431128985 ] } },
{ "type": "Feature", "properties": { "Buoy": 0.000000, "lat": 0.000000, "long": 0.000000, "lat2": null, "long2": null, "Type": "Ecological mooring buoys", "Depth": 0.000000, "SeaBottom": null, "Comment": null, "Location": "Cruz", "Municipali": "Mayaguez" }, "geometry": { "type": "Point", "coordinates": [ -7489964.9587892238, 2056776.8457336728 ] } },
{ "type": "Feature", "properties": { "Buoy": 0.000000, "lat": 0.000000, "long": 0.000000, "lat2": null, "long2": null, "Type": "Ecological mooring buoys", "Depth": 0.000000, "SeaBottom": null, "Comment": null, "Location": "Pata Palo", "Municipali": "Mayaguez" }, "geometry": { "type": "Point", "coordinates": [ -7487632.8154571038, 2055893.4948863792 ] } },
{ "type": "Feature", "properties": { "Buoy": 0.000000, "lat": 0.000000, "long": 0.000000, "lat2": null, "long2": null, "Type": "Ecological mooring buoys", "Depth": 0.000000, "SeaBottom": null, "Comment": null, "Location": "Gruta Ulisses", "Municipali": "Mayaguez" }, "geometry": { "type": "Point", "coordinates": [ -7489740.0934178196, 2056780.3604683806 ] } },
{ "type": "Feature", "properties": { "Buoy": 0.000000, "lat": 0.000000, "long": 0.000000, "lat2": null, "long2": null, "Type": "Ecological mooring buoys", "Depth": 0.000000, "SeaBottom": null, "Comment": null, "Location": "Cueva Andres", "Municipali": "Mayaguez" }, "geometry": { "type": "Point", "coordinates": [ -7491095.9648156827, 2056875.2585337705 ] } },
{ "type": "Feature", "properties": { "Buoy": 0.000000, "lat": 0.000000, "long": 0.000000, "lat2": null, "long2": null, "Type": "Ecological mooring buoys", "Depth": 0.000000, "SeaBottom": null, "Comment": null, "Location": "Laberinto de Marta", "Municipali": "Mayaguez" }, "geometry": { "type": "Point", "coordinates": [ -7487111.8402401907, 2056120.7724956924 ] } },
{ "type": "Feature", "properties": { "Buoy": 0.000000, "lat": 0.000000, "long": 0.000000, "lat2": null, "long2": null, "Type": "Ecological mooring buoys", "Depth": 0.000000, "SeaBottom": null, "Comment": null, "Location": "Isla Cardona", "Municipali": "Ponce" }, "geometry": { "type": "Point", "coordinates": [ -7417768.7030352456, 2032607.3591373852 ] } },
{ "type": "Feature", "properties": { "Buoy": 0.000000, "lat": 0.000000, "long": 0.000000, "lat2": null, "long2": null, "Type": "Ecological mooring buoys", "Depth": 0.000000, "SeaBottom": null, "Comment": null, "Location": "Isla Cardona", "Municipali": "Ponce" }, "geometry": { "type": "Point", "coordinates": [ -7417815.4572213767, 2032623.7419793543 ] } },
{ "type": "Feature", "properties": { "Buoy": 0.000000, "lat": 0.000000, "long": 0.000000, "lat2": null, "long2": null, "Type": "Ecological mooring buoys", "Depth": 0.000000, "SeaBottom": null, "Comment": null, "Location": "Isla Cardona", "Municipali": "Ponce" }, "geometry": { "type": "Point", "coordinates": [ -7417843.2870940762, 2032648.3162666368 ] } },
{ "type": "Feature", "properties": { "Buoy": 0.000000, "lat": 0.000000, "long": 0.000000, "lat2": null, "long2": null, "Type": "Ecological mooring buoys", "Depth": 0.000000, "SeaBottom": null, "Comment": null, "Location": "Isla Cardona", "Municipali": "Ponce" }, "geometry": { "type": "Point", "coordinates": [ -7417794.3065181272, 2032609.6995425865 ] } },
{ "type": "Feature", "properties": { "Buoy": 0.000000, "lat": 0.000000, "long": 0.000000, "lat2": null, "long2": null, "Type": "Ecological mooring buoys", "Depth": 0.000000, "SeaBottom": null, "Comment": null, "Location": "Isla Cardona", "Municipali": "Ponce" }, "geometry": { "type": "Point", "coordinates": [ -7417804.3252722984, 2032695.1245136496 ] } },
{ "type": "Feature", "properties": { "Buoy": 0.000000, "lat": 0.000000, "long": 0.000000, "lat2": null, "long2": null, "Type": "Ecological mooring buoys", "Depth": 0.000000, "SeaBottom": null, "Comment": null, "Location": "Isla Cardona", "Municipali": "Ponce" }, "geometry": { "type": "Point", "coordinates": [ -7417766.4766454278, 2032679.9118217526 ] } }
]
}
